{
    "overview": {
        "polyline": {
            "points": "mbirCmgr_VfBtFLHx@Sf@~AD?B?`@vABHcA`@oBr@_@c@c@{@k@cBi@oBa@kAi@_@g@MMCcAkAYg@S]e@a@mCoBYUUGiBCiA@y@F}GL{HDm@Bw@OyDw@Cf@`@H"
        }
    },
    "parkings": [
        {
            "image": "http://localhost:5000/files/d2e9d479980bde016e657e6a45605ef8",
            "location": {
                "lat": 24.1459759,
                "lng": 120.6865389
            },
            "name": "Jing Wu Parking"
        },
        {
            "image": "http://localhost:5000/files/3ebe50840d607b98cf10d5d4a13a9f5e",
            "location": {
                "lat": 24.146399,
                "lng": 120.684859
            },
            "name": "Xinxing Parking"
        },
        {
            "image": "http://localhost:5000/files/442c259a4df83cc7bad3ff500c6f948d",
            "location": {
                "lat": 24.1426197,
                "lng": 120.6850512
            },
            "name": "\u81ea\u7531\u8def\u7acb\u9ad4\u505c\u8eca\u5834"
        },
        {
            "image": "http://localhost:5000/files/4dd9e1c3d3158a41ea63888d7fc7e65c",
            "location": {
                "lat": 24.14262059999999,
                "lng": 120.6878062
            },
            "name": "Gancheng Parking"
        },
        {
            "image": "http://localhost:5000/files/fb5cad58dc2b56c35093a27764fbb807",
            "location": {
                "lat": 24.147435,
                "lng": 120.6856877
            },
            "name": "Da Che He Parking"
        },
        {
            "image": "http://localhost:5000/files/5c7ffe804763c29030bafcef22c4a54e",
            "location": {
                "lat": 24.1482029,
                "lng": 120.6869965
            },
            "name": "Wenying Guan Pang Parking"
        },
        {
            "image": "http://localhost:5000/files/0cba8638b9dc7f66612f5e4b50cfc17c",
            "location": {
                "lat": 24.141195,
                "lng": 120.6879
            },
            "name": "\u53f0\u4e2d\u5e02\u516c\u5712\u8def\u5927\u5ba2\u8eca\u505c\u8eca\u5834"
        },
        {
            "image": "http://localhost:5000/files/e2135d247b8f1c7cd0df823174915227",
            "location": {
                "lat": 24.1409599,
                "lng": 120.6874159
            },
            "name": "\u5efa\u570b\u5927\u5c0f\u8eca\u505c\u8eca\u5834"
        },
        {
            "image": "http://localhost:5000/files/c278fc54d042ed43a9600a107d08f3d3",
            "location": {
                "lat": 24.1486021,
                "lng": 120.6857224
            },
            "name": "Shuili Dalou Parking"
        },
        {
            "image": "http://localhost:5000/files/f2827080a6d727045aa50dbd627183e5",
            "location": {
                "lat": 24.14893709999999,
                "lng": 120.6859447
            },
            "name": "Parking"
        },
        {
            "image": "http://localhost:5000/files/069d219ce7a7572024aa5e8bbd74078b",
            "location": {
                "lat": 24.1401464,
                "lng": 120.6860845
            },
            "name": "Parking"
        },
        {
            "image": "http://localhost:5000/files/3f721820618308b7fa28e8d10ebd3552",
            "location": {
                "lat": 24.1490573,
                "lng": 120.6863192
            },
            "name": "CITYPARKINGyucai Station"
        },
        {
            "image": "http://localhost:5000/files/efee42d81930122a1f4d983b478cbb39",
            "location": {
                "lat": 24.1407846,
                "lng": 120.6891419
            },
            "name": "\u7d71\u806f\u5ba2\u904b\u5e72\u57ce\u505c\u8eca\u5834"
        },
        {
            "image": "http://localhost:5000/files/b84fa6a48cef4c6e9b21caa8ae58e550",
            "location": {
                "lat": 24.1491261,
                "lng": 120.6876129
            },
            "name": "\u6587\u82f1\u9928\u65c1\u505c\u8eca\u5834"
        },
        {
            "image": "http://localhost:5000/files/1c369e7b7fd9c76e180d215e3ce003e9",
            "location": {
                "lat": 24.1485106,
                "lng": 120.6829617
            },
            "name": "\u4e09\u6c11\u4e00\u4e2d\u505c\u8eca\u5834"
        },
        {
            "image": "http://localhost:5000/files/c3913691044e4a648a88a0a870f32572",
            "location": {
                "lat": 24.148807,
                "lng": 120.683315
            },
            "name": "Sanmin Yi Zhong Parking"
        },
        {
            "image": "http://localhost:5000/files/7d0a15d9acb6c2101627a42b1e88de3e",
            "location": {
                "lat": 24.146639,
                "lng": 120.681238
            },
            "name": "Fuyin Di Yi Parking"
        },
        {
            "image": "http://localhost:5000/files/2180ae48c5047ca099894479c544de06",
            "location": {
                "lat": 24.1466793,
                "lng": 120.6812379
            },
            "name": "Fuyin Parking"
        },
        {
            "image": "http://localhost:5000/files/a6299c148712dc0f59372d19361638c9",
            "location": {
                "lat": 24.1408418,
                "lng": 120.6821778
            },
            "name": "\u52a9\u5b89\u5ba4\u5185\u6536\u8cbb\u505c\u8eca\u5834"
        },
        {
            "image": "http://localhost:5000/files/2ac9e623bcb451d3af9d98fd223ac59a",
            "location": {
                "lat": 24.139219,
                "lng": 120.6861591
            },
            "name": "\u570b\u5149\u5ba2\u904b\u8f49\u904b\u7ad9\u505c\u8eca\u5834 (\u6c7d\u8eca\u7528 )"
        }
    ],
    "steps": [
        {
            "distance": "0.2 km",
            "html_instructions": "Head <b>southwest</b> on <b>\u5fa9\u8208\u8def\u56db\u6bb537\u5df7</b> toward <b>\u53f0\u4e2d\u8def27\u5df7</b>",
            "image": "http://localhost:5000/files/5fcace637b4671cf4473b30d32b2df1c",
            "location": {
                "lat": 24.1362308,
                "lng": 120.6848677
            }
        },
        {
            "distance": "0.1 km",
            "html_instructions": "Turn <b>right</b> onto <b>\u53f0\u4e2d\u8def27\u5df7</b>",
            "image": "http://localhost:5000/files/0d39be9de236b838442eaab443af90bc",
            "location": {
                "lat": 24.1353544,
                "lng": 120.6836912
            }
        },
        {
            "distance": "0.1 km",
            "html_instructions": "Turn <b>right</b> onto <b>\u53f0\u4e2d\u8def</b>",
            "image": "http://localhost:5000/files/43153c37c034273873fa86f20c1c64a0",
            "location": {
                "lat": 24.1349146,
                "lng": 120.6827235
            }
        },
        {
            "distance": "0.7 km",
            "html_instructions": "Turn <b>right</b> onto <b>\u5efa\u570b\u8def</b><div style=\"font-size:0.9em\">Pass by 7-ELEVEN (on the right in 450&nbsp;m)</div>",
            "image": "http://localhost:5000/files/39b5c22e5a6afa8cc43189c39562e012",
            "location": {
                "lat": 24.1358092,
                "lng": 120.6822882
            }
        },
        {
            "distance": "0.4 km",
            "html_instructions": "Continue straight onto <b>\u96d9\u5341\u8def\u4e00\u6bb5</b>",
            "image": "http://localhost:5000/files/cacee8f20b32b742736f56a7df0876ab",
            "location": {
                "lat": 24.1401309,
                "lng": 120.6860357
            }
        },
        {
            "distance": "0.1 km",
            "html_instructions": "Continue straight to stay on <b>\u96d9\u5341\u8def\u4e00\u6bb5</b>",
            "image": "http://localhost:5000/files/7501dba70ae1cd7866fdbaabf6039f0a",
            "location": {
                "lat": 24.1436488,
                "lng": 120.686
            }
        },
        {
            "distance": "40 m",
            "html_instructions": "Make a <b>U-turn</b> at <b>\u798f\u4ec1\u8857</b><div style=\"font-size:0.9em\">Destination will be on the right</div>",
            "image": "http://localhost:5000/files/08e102521d3207e7dd14c893f5501a7d",
            "location": {
                "lat": 24.1445796,
                "lng": 120.6862817
            }
        }
    ]
}